[{"Id":1,"Name":"1806/The Understudy","Latitude":-37.814107,"Longitude":144.96327999999994,"Address":"169 Exhibition Street, Melbourne, Victoria, 3000.","EventIds":[160]},{"Id":2,"Name":"3 Ravens Brewery","Latitude":-37.814107,"Longitude":144.96327999999994,"Address":"1 Theobald Street, Thornbury, VIC 3071","EventIds":[195]},{"Id":3,"Name":"Agent 284","Latitude":0.0,"Longitude":0.0,"Address":"284 Smith St, Collingwood VIC 3066","EventIds":[98]},{"Id":4,"Name":"Antique Bar","Latitude":-37.814107,"Longitude":144.96327999999994,"Address":"218 Glenhuntly Road, Elsternwick VIC 3185","EventIds":[192]},{"Id":5,"Name":"Atticus Finch","Latitude":-37.814107,"Longitude":144.96327999999994,"Address":"129 Lygon St, East Brunswick","EventIds":[190]},{"Id":6,"Name":"Baden Powell Hotel","Latitude":-37.814107,"Longitude":144.96327999999994,"Address":"61-65 Victoria Parade, Collingwood VIC 3066","EventIds":[121]},{"Id":7,"Name":"Bar Nacional","Latitude":-37.814107,"Longitude":144.96327999999994,"Address":"727 Collins St Docklands 3008","EventIds":[55]},{"Id":8,"Name":"Beer DeLuxe","Latitude":-37.814107,"Longitude":144.96327999999994,"Address":"Federation Square, Cnr Swanston & Flinders Sts, Melbourne VIC 3000","EventIds":[15,150,179]},{"Id":9,"Name":"Beer DeLuxe (Federation Square)","Latitude":-37.814107,"Longitude":144.96327999999994,"Address":"Federation Square,\r\nFlinders Street,\r\nMelbourne, VIC, 3000","EventIds":[182]},{"Id":10,"Name":"Beer Deluxe Hawthorn","Latitude":-37.814107,"Longitude":144.96327999999994,"Address":"329 Burwood Rd Hawthorn 3122","EventIds":[103]},{"Id":11,"Name":"Belgian Beer Cafe Melbourne","Latitude":-37.814107,"Longitude":144.96327999999994,"Address":"5 Riverside Quay, Southbank Victoria 3006","EventIds":[129,202]},{"Id":12,"Name":"Bimbo Deluxe","Latitude":-37.814107,"Longitude":144.96327999999994,"Address":"376 Brunswick Street\r\nFitzroy\r\nVictoria 3065","EventIds":[6]},{"Id":13,"Name":"Black Dog Brewery","Latitude":-37.814107,"Longitude":144.96327999999994,"Address":"339 Booth rd Taminick, Victoria 3675","EventIds":[35,228]},{"Id":14,"Name":"Boatrocker Brewery","Latitude":0.0,"Longitude":0.0,"Address":"51 Macbeth Street, Braeside, 3195","EventIds":[141]},{"Id":15,"Name":"Bridge Road Brewers","Latitude":-37.814107,"Longitude":144.96327999999994,"Address":"Old Coach House\r\nFord St \r\nBeechworth, 3747","EventIds":[5,144,213,232]},{"Id":16,"Name":"Brother Burger","Latitude":-37.814107,"Longitude":144.96327999999994,"Address":"413 Brunswick St, Fitzroy VIC 3065","EventIds":[156]},{"Id":17,"Name":"Brunswick Mess Hall","Latitude":-37.814107,"Longitude":144.96327999999994,"Address":"400 Sydney Rd, Melbourne VIC 3056","EventIds":[168]},{"Id":18,"Name":"Brunswick St Cider House","Latitude":-37.814107,"Longitude":144.96327999999994,"Address":"386-388 Brunswick St Fitzroy","EventIds":[42]},{"Id":19,"Name":"Builders Arms Hotel","Latitude":-37.814107,"Longitude":144.96327999999994,"Address":"211 Gertrude St, Fitzroy VIC 3065","EventIds":[9]},{"Id":20,"Name":"Captain Melville","Latitude":-37.814107,"Longitude":144.96327999999994,"Address":"34 Franklin Street, Melbourne 3000","EventIds":[40]},{"Id":21,"Name":"Carwyn Cellars (The Back Room)","Latitude":-37.814107,"Longitude":144.96327999999994,"Address":"877 High Street, Thornbury 3071","EventIds":[186]},{"Id":22,"Name":"Cavalier Brewery","Latitude":-37.814107,"Longitude":144.96327999999994,"Address":"8/2 Derrimut Drive, Derrimut 3030","EventIds":[91,231]},{"Id":23,"Name":"Collins Quarter","Latitude":-37.814107,"Longitude":144.96327999999994,"Address":"86 Collins St\r\nMelbourne\r\nVIC 3000","EventIds":[12]},{"Id":24,"Name":"Cookie","Latitude":-37.814107,"Longitude":144.96327999999994,"Address":"Level 1 Curtin House\r\n252 Swanston St\r\nMelbourne\r\n3000","EventIds":[54,125,210,211]},{"Id":25,"Name":"Corner Hotel","Latitude":-37.814107,"Longitude":144.96327999999994,"Address":"57 Swan St, Richmond VIC 3121","EventIds":[101]},{"Id":26,"Name":"Double Happiness","Latitude":-37.814107,"Longitude":144.96327999999994,"Address":"12 Liverpool St\r\nMelbourne, VIC 3000","EventIds":[70]},{"Id":27,"Name":"duNord","Latitude":-37.814107,"Longitude":144.96327999999994,"Address":"367 Little Bourke Street\r\n3000 Melbourne","EventIds":[57]},{"Id":28,"Name":"East of Everything","Latitude":-37.814107,"Longitude":144.96327999999994,"Address":"Level 3 72 Auburn Parade\r\nHawthorn East 3123","EventIds":[193]},{"Id":29,"Name":"Firechief","Latitude":-37.814107,"Longitude":144.96327999999994,"Address":"169 Camberwell Rd \r\nHawthorn East, VIC","EventIds":[56]},{"Id":30,"Name":"Fitzroy Beer Garden","Latitude":-37.814107,"Longitude":144.96327999999994,"Address":"243 Gertrude St\r\nFitzroy","EventIds":[147]},{"Id":31,"Name":"Flagstaff Gardens","Latitude":-37.814107,"Longitude":144.96327999999994,"Address":"Corner William and La Trobe St. Melbourne CBD","EventIds":[87]},{"Id":32,"Name":"Forester's Beer and Music Hall","Latitude":-37.814107,"Longitude":144.96327999999994,"Address":"64 Smith St, Collingwood","EventIds":[58]},{"Id":33,"Name":"From on High","Latitude":-37.814107,"Longitude":144.96327999999994,"Address":"412 High St Prahran","EventIds":[140]},{"Id":34,"Name":"Geebung Polo Club","Latitude":-37.814107,"Longitude":144.96327999999994,"Address":"85 Auburn Road,\r\nHawthorn East\r\nVic 3123","EventIds":[123]},{"Id":35,"Name":"Grain and Grape","Latitude":-37.814107,"Longitude":144.96327999999994,"Address":"5/280 Whitehall St,\r\nYARRAVILLE, VIC, 3013","EventIds":[142]},{"Id":36,"Name":"Grape & Grain Liquor Cellars","Latitude":-37.814107,"Longitude":144.96327999999994,"Address":"14 Station Street, Moorabbin 3189","EventIds":[198]},{"Id":37,"Name":"Great Britain Hotel","Latitude":-37.814107,"Longitude":144.96327999999994,"Address":"447 Church Street, Richmond VIC 3121","EventIds":[133,173]},{"Id":38,"Name":"Grossi Florentino; Upstairs","Latitude":-37.814107,"Longitude":144.96327999999994,"Address":"80 Bourke Street\r\nMelbourne\r\nVictoria, 3000","EventIds":[46]},{"Id":39,"Name":"Half Moon","Latitude":-37.814107,"Longitude":144.96327999999994,"Address":"120 Church st, Brighton, VIC 3186","EventIds":[122]},{"Id":40,"Name":"Hannah's Bar at Epocha","Latitude":-37.814107,"Longitude":144.96327999999994,"Address":"49 Rathdowne St\r\nCarlton 3053","EventIds":[23]},{"Id":41,"Name":"Heide: Cafe Vue","Latitude":-37.814107,"Longitude":144.96327999999994,"Address":"7 Templestowe Rd, Bulleen VIC 3105","EventIds":[3]},{"Id":42,"Name":"Holgate Brewhouse","Latitude":-37.814107,"Longitude":144.96327999999994,"Address":"79 High St \r\nWoodend 3442","EventIds":[11,171,220,221]},{"Id":43,"Name":"Horn Please","Latitude":-37.814107,"Longitude":144.96327999999994,"Address":"167 St Georges Road\r\nFitzroy North, Vic 3070","EventIds":[17,18,21]},{"Id":44,"Name":"Howler","Latitude":-37.814107,"Longitude":144.96327999999994,"Address":"7-11 Dawson Street, Brunswick. \r\nEntry is via the car park directly opposite Brunswick City Baths.\r\nBrunswick, Victoria 3056","EventIds":[78,194]},{"Id":45,"Name":"Howler Bar","Latitude":-37.814107,"Longitude":144.96327999999994,"Address":"7-11 Dawson Street, Brunswick. Entry is via the car park directly opposite Brunswick City Baths. Brunswick, Victoria 3056","EventIds":[100]},{"Id":46,"Name":"Ichi Ni","Latitude":-37.814107,"Longitude":144.96327999999994,"Address":"12 The Esplanade St Kilda Vic 3182","EventIds":[34]},{"Id":47,"Name":"Jorg Restaurant Bar Events","Latitude":-37.814107,"Longitude":144.96327999999994,"Address":"203 St Georges Road\r\nFitzroy North\r\nMelbourne\r\nVictoria\r\n3068","EventIds":[19]},{"Id":48,"Name":"Junction Beer Hall and Wine Room","Latitude":-37.814107,"Longitude":144.96327999999994,"Address":"15 Hall Street\r\nNewport, 3015.\r\n\r\nEast Side of Newport Station heading away from CBD","EventIds":[14,67]},{"Id":49,"Name":"Kellys bar & kitchen Olinda","Latitude":-37.814107,"Longitude":144.96327999999994,"Address":"1510 Mt Dandenong Tourist Rd Olinda Vic 3788","EventIds":[208,233]},{"Id":50,"Name":"Kumo Izakaya & Sake Bar","Latitude":-37.814107,"Longitude":144.96327999999994,"Address":"152 Lygon St, Brunswick East VIC 3057","EventIds":[4]},{"Id":51,"Name":"Lily Blacks","Latitude":-37.814107,"Longitude":144.96327999999994,"Address":"12 Meyers Place\r\nMelbourne, VIC 3000","EventIds":[71]},{"Id":52,"Name":"Little Creatures Dining Hall","Latitude":-37.814107,"Longitude":144.96327999999994,"Address":"222 Brunswick Street\r\nFitzroy VIC 3065","EventIds":[88,104,105,106,107,108,109,110,111]},{"Id":53,"Name":"Little Creatures Geelong","Latitude":-37.814107,"Longitude":144.96327999999994,"Address":"221 Swanston Street\r\nSouth Geelong VIC 3220","EventIds":[89,229]},{"Id":54,"Name":"Lucky Coq","Latitude":-37.814107,"Longitude":144.96327999999994,"Address":"179 Chapel Street, Windsor, Victoria","EventIds":[113]},{"Id":55,"Name":"Matilda Bay Brewery - Bar - Kitchen","Latitude":-37.814107,"Longitude":144.96327999999994,"Address":"89 Bertie Street Port Melbourne 3207","EventIds":[97]},{"Id":56,"Name":"Matteos","Latitude":-37.814107,"Longitude":144.96327999999994,"Address":"533 Brunswick Street, North Fitzroy, VIC","EventIds":[48]},{"Id":57,"Name":"Meatmother","Latitude":-37.814107,"Longitude":144.96327999999994,"Address":"167 Swan St, Rchmond","EventIds":[52]},{"Id":58,"Name":"Melbourne Arts Centre - ANZ Pavilion","Latitude":-37.814107,"Longitude":144.96327999999994,"Address":"100 St. Kilda Rd.\r\nMelbourne VIC 3000","EventIds":[143]},{"Id":59,"Name":"Merchant Osteria Veneta","Latitude":-37.814107,"Longitude":144.96327999999994,"Address":"495 Collins Street\r\nMelbourne\r\nVictoria, 3000","EventIds":[47]},{"Id":60,"Name":"Merricote","Latitude":-37.814107,"Longitude":144.96327999999994,"Address":"81 High Street, Northcote, 3070","EventIds":[26,53]},{"Id":61,"Name":"Middle Park Hotel","Latitude":-37.814107,"Longitude":144.96327999999994,"Address":"102 Canterbury Rd, Middle Park 3206","EventIds":[33]},{"Id":62,"Name":"Milk the Cow Licensed Fromagerie","Latitude":-37.814107,"Longitude":144.96327999999994,"Address":"1/157 Fitzroy Street St Kilda 3182","EventIds":[10]},{"Id":63,"Name":"Moon Dog Brewery","Latitude":-37.814107,"Longitude":144.96327999999994,"Address":"17 Duke Street\r\nAbbotsford\r\nVIC 3067","EventIds":[126]},{"Id":64,"Name":"Mornington Peninsula Brewery","Latitude":-37.814107,"Longitude":144.96327999999994,"Address":"72 Watt Road, Mornington","EventIds":[66,134,222,224]},{"Id":65,"Name":"Mountain Goat Brewery","Latitude":-37.814107,"Longitude":144.96327999999994,"Address":"80 North St\r\nRichmond, Vic \r\n3121","EventIds":[184]},{"Id":66,"Name":"mr. wolf","Latitude":-37.814107,"Longitude":144.96327999999994,"Address":"9-15 Inkerman St\r\nSt Kilda\r\nVIC 3182","EventIds":[41,188]},{"Id":67,"Name":"Mrs.Parmas","Latitude":-37.814107,"Longitude":144.96327999999994,"Address":"19-25 Little Bourke Street\r\nMelbourne\r\n3000","EventIds":[162]},{"Id":68,"Name":"Observatory at Botanic Gardens","Latitude":-37.814107,"Longitude":144.96327999999994,"Address":"Observatory at Botanic Gardens\r\nBirdwood Ave, South Yarra VIC 3141","EventIds":[49]},{"Id":69,"Name":"Odyssey Tavern & Brewery","Latitude":-37.814107,"Longitude":144.96327999999994,"Address":"611-621 Surfcoast Highway \r\nMount Duneed, Vic, 3217","EventIds":[203,230]},{"Id":70,"Name":"Ombra Salumi Bar","Latitude":-37.814107,"Longitude":144.96327999999994,"Address":"76 Bourke Street\r\nMelbourne \r\nVictoria, 3000","EventIds":[45,204]},{"Id":71,"Name":"Orange Windsor","Latitude":-37.814107,"Longitude":144.96327999999994,"Address":"124 - 126 Chapel Street\r\nWindsor VIC 3181","EventIds":[27]},{"Id":72,"Name":"Otsumami","Latitude":-37.814107,"Longitude":144.96327999999994,"Address":"257 High St  Northcote VIC 3070","EventIds":[20]},{"Id":73,"Name":"Peninsula","Latitude":-37.814107,"Longitude":144.96327999999994,"Address":"Shed 14\r\nCentral Pier\r\n161 Harbour Esplanade\r\nDocklands Victoria","EventIds":[137]},{"Id":74,"Name":"Penny Blue","Latitude":-37.814107,"Longitude":144.96327999999994,"Address":"2 Driver Lane,\r\nMelbourne, 3000\r\nVIC","EventIds":[136]},{"Id":75,"Name":"Platform 28","Latitude":-37.814107,"Longitude":144.96327999999994,"Address":"82 Village St, Docklands Vic 3008","EventIds":[36]},{"Id":76,"Name":"Po' Boy Quarter","Latitude":-37.814107,"Longitude":144.96327999999994,"Address":"293-295 Smith St FITZROY","EventIds":[37]},{"Id":77,"Name":"Pope Joan","Latitude":-37.814107,"Longitude":144.96327999999994,"Address":"77-79 Nicholson Street\r\nBrunswick East \r\nVIC 3057","EventIds":[1]},{"Id":78,"Name":"Portland Hotel & James Squire Brewhouse","Latitude":-37.814107,"Longitude":144.96327999999994,"Address":"127 Russell Street,\r\nMelbourne\r\nVIC, 3000","EventIds":[86,197]},{"Id":79,"Name":"Portsea Hotel","Latitude":-37.814107,"Longitude":144.96327999999994,"Address":"3746 Point Nepean rd Portsea, Victoria 3944","EventIds":[177]},{"Id":80,"Name":"Preston Shire Hall","Latitude":-37.814107,"Longitude":144.96327999999994,"Address":"286 Gower Street, Preston","EventIds":[132]},{"Id":81,"Name":"Public Inn","Latitude":-37.814107,"Longitude":144.96327999999994,"Address":"165 Barker St\r\nCastlemaine\r\nVictoria 3450","EventIds":[7,214]},{"Id":82,"Name":"Puffing Billy","Latitude":-37.814107,"Longitude":144.96327999999994,"Address":"1 Old Monbulk Rd, Belgrave","EventIds":[94]},{"Id":83,"Name":"Queen Street Rescue","Latitude":-37.814107,"Longitude":144.96327999999994,"Address":"1- 189 Queen Street \r\nMelbourne 3000","EventIds":[120]},{"Id":84,"Name":"Red Duck Brewery","Latitude":-37.814107,"Longitude":144.96327999999994,"Address":"11a Michaels Drive Alfredton Ballarat Victoria","EventIds":[163,165,218,219]},{"Id":85,"Name":"Red Hill Brewery","Latitude":-37.814107,"Longitude":144.96327999999994,"Address":"88 Shoreham Rd\r\nRed Hill South","EventIds":[79,226]},{"Id":86,"Name":"Red Triangle","Latitude":-37.814107,"Longitude":144.96327999999994,"Address":"110 Argyle St, Fitzroy VIC 3065","EventIds":[81]},{"Id":87,"Name":"Richmond Hill Cafe & Larder","Latitude":-37.814107,"Longitude":144.96327999999994,"Address":"48-50 Bridge Road \r\nRichmond \r\nVIC 3121","EventIds":[28]},{"Id":88,"Name":"Robert Burns Hotel","Latitude":-37.814107,"Longitude":144.96327999999994,"Address":"376 Smith Street\r\nCollingwood, VIC 3066","EventIds":[118]},{"Id":89,"Name":"Rockwell and Sons","Latitude":-37.814107,"Longitude":144.96327999999994,"Address":"288 Smith Street\r\nCollingwood\r\nVIC 3066","EventIds":[38,166]},{"Id":90,"Name":"Romulus & Remus","Latitude":-37.814107,"Longitude":144.96327999999994,"Address":"648 Bridge Rd\r\nRichmond, Vic, Australia","EventIds":[92]},{"Id":91,"Name":"Royal Exhibition Buildings","Latitude":-37.814107,"Longitude":144.96327999999994,"Address":"9 Nicholson St, Carlton VIC 3053","EventIds":[167]},{"Id":92,"Name":"Royal Hotel Clifton Hill","Latitude":-37.814107,"Longitude":144.96327999999994,"Address":"41 Spensley Street\r\nClifton Hill\r\nVIC 3068","EventIds":[22]},{"Id":93,"Name":"Royal Mail Hotel on Spencer","Latitude":-37.814107,"Longitude":144.96327999999994,"Address":"519 Spencer st\r\nWest Melbourne\r\n3003","EventIds":[16]},{"Id":94,"Name":"Royal Standard Hotel","Latitude":-37.814107,"Longitude":144.96327999999994,"Address":"333 William Street\r\nWest Melbourne \r\n3003 Vic","EventIds":[175]},{"Id":95,"Name":"Royston Hotel","Latitude":-37.814107,"Longitude":144.96327999999994,"Address":"12 River St, Richmond VIC 3121","EventIds":[161]},{"Id":96,"Name":"Saint & Rogue","Latitude":-37.814107,"Longitude":144.96327999999994,"Address":"582 Little Collins Street\r\nMelbourne, Vic, 3000","EventIds":[65]},{"Id":97,"Name":"Shebeen","Latitude":-37.814107,"Longitude":144.96327999999994,"Address":"36 Manchester Lane\r\nMelbourne, VIC 3000","EventIds":[135]},{"Id":98,"Name":"Showtime Events Centre","Latitude":-37.814107,"Longitude":144.96327999999994,"Address":"61 South Wharf Promenade \r\nSouth Wharf\r\nMelbourne\r\nVic 3006","EventIds":[75]},{"Id":99,"Name":"Slowbeer","Latitude":-37.814107,"Longitude":144.96327999999994,"Address":"468 Bridge Rd Richmond","EventIds":[191]},{"Id":100,"Name":"Some Velvet morning","Latitude":-37.814107,"Longitude":144.96327999999994,"Address":"123 Queens Parade, Clifton Hill VIC 3068","EventIds":[59]},{"Id":101,"Name":"South Wharf Promenade","Latitude":-37.814107,"Longitude":144.96327999999994,"Address":"South Wharf Promenade, South Wharf 3006","EventIds":[124]},{"Id":102,"Name":"Storm in a Teacup","Latitude":-37.814107,"Longitude":144.96327999999994,"Address":"48A Smith St  Collingwood VIC 3066","EventIds":[174]},{"Id":103,"Name":"Swiss Club of Victoria Restaurant","Latitude":-37.814107,"Longitude":144.96327999999994,"Address":"89 Flinders Lane\r\nMelbourne, Vic, 3000","EventIds":[13]},{"Id":104,"Name":"Temple Brewing Company","Latitude":-37.814107,"Longitude":144.96327999999994,"Address":"122 Weston Street\r\nBrunswick East VIC 3057 Australia","EventIds":[151]},{"Id":105,"Name":"Terminus Hotel","Latitude":-37.814107,"Longitude":144.96327999999994,"Address":"492 Queens Parade, North Fitzroy VIC 3068","EventIds":[62,95,127,207]},{"Id":106,"Name":"The Alehouse Project","Latitude":-37.814107,"Longitude":144.96327999999994,"Address":"98-100 Lygon St, Brunswick East VIC 3057","EventIds":[154]},{"Id":107,"Name":"The Beaufort","Latitude":-37.814107,"Longitude":144.96327999999994,"Address":"421 Rathdown Street, Carlton","EventIds":[172,209]},{"Id":108,"Name":"The Blues Train","Latitude":-37.814107,"Longitude":144.96327999999994,"Address":"20 Symonds Street, Queenscliff VIC 3225","EventIds":[72]},{"Id":109,"Name":"The Boatbuilders Yard","Latitude":-37.814107,"Longitude":144.96327999999994,"Address":"23 South Wharf Promenade, South Wharf","EventIds":[116]},{"Id":110,"Name":"The Botanical","Latitude":-37.814107,"Longitude":144.96327999999994,"Address":"169 Domain Road\r\nSouth Yarra Victoria 3141","EventIds":[187]},{"Id":111,"Name":"The Clifton Hill Brewpub","Latitude":-37.814107,"Longitude":144.96327999999994,"Address":"89 Queens Parade\r\nClifton Hill\r\nVic 3068","EventIds":[32,76,119]},{"Id":112,"Name":"The Collection Bar","Latitude":-37.814107,"Longitude":144.96327999999994,"Address":"328 Bridge Rd, Richmond 3121","EventIds":[29]},{"Id":113,"Name":"The College Lawn Hotel","Latitude":-37.814107,"Longitude":144.96327999999994,"Address":"36 Greville Street Prahran 3181","EventIds":[112]},{"Id":114,"Name":"The Coopers Malthouse","Latitude":-37.814107,"Longitude":144.96327999999994,"Address":"113 Sturt St, Southbank VIC 3006","EventIds":[61,63]},{"Id":115,"Name":"The Crimean","Latitude":-37.814107,"Longitude":144.96327999999994,"Address":"351 Queensberry St, \r\nNorth Melbourne VIC 3051","EventIds":[43]},{"Id":116,"Name":"The Dan O'Connell Hotel","Latitude":0.0,"Longitude":0.0,"Address":"225 Canning St Carlton","EventIds":[201]},{"Id":117,"Name":"The Dispensary Enoteca","Latitude":-37.814107,"Longitude":144.96327999999994,"Address":"9 Chancery Lane\r\nBendigo\r\nVictoria 3550","EventIds":[31,227]},{"Id":118,"Name":"The Fox Hotel","Latitude":-37.814107,"Longitude":144.96327999999994,"Address":"351 Wellington Street\r\nCollingwood\r\nVic 3066","EventIds":[84,200]},{"Id":119,"Name":"The Gertrude Hotel","Latitude":-37.814107,"Longitude":144.96327999999994,"Address":"148 Gertrude St, Fitzroy VIC 3065","EventIds":[158]},{"Id":120,"Name":"The Grace Darling Hotel","Latitude":-37.814107,"Longitude":144.96327999999994,"Address":"114 Smith Street, Collingwood, Vic, 3066","EventIds":[73]},{"Id":121,"Name":"The Grand","Latitude":-37.814107,"Longitude":144.96327999999994,"Address":"333 Burnley Street,\r\nRichmond, Vic, 3121","EventIds":[39]},{"Id":122,"Name":"The Great Northern Hotel","Latitude":-37.814107,"Longitude":144.96327999999994,"Address":"644 Rathdowne Street, Carlton North VIC 3054","EventIds":[148,153]},{"Id":123,"Name":"The Hotel Shamrock (Gold Dust Lounge)","Latitude":-37.814107,"Longitude":144.96327999999994,"Address":"Cnr of Williamson Street & Pall Mall Bendigo VIC 3550","EventIds":[138,225]},{"Id":124,"Name":"The Kelvin Club","Latitude":-37.814107,"Longitude":144.96327999999994,"Address":"14 - 30 Melbourne Place, Melbourne VIC 3000","EventIds":[180]},{"Id":125,"Name":"The Kodiak Club","Latitude":-37.814107,"Longitude":144.96327999999994,"Address":"272 Brunswick Street, Fitzroy","EventIds":[145]},{"Id":126,"Name":"The Local Taphouse","Latitude":-37.814107,"Longitude":144.96327999999994,"Address":"184 Carlisle Street, St. Kilda East, VIC 3183","EventIds":[24,25,93,128,178,185,205,206]},{"Id":127,"Name":"The Mallow Hotel","Latitude":-37.814107,"Longitude":144.96327999999994,"Address":"20 Skipton Street\r\nBallarat VIC 3350","EventIds":[8,102,215,216]},{"Id":128,"Name":"The Palace Hotel","Latitude":-37.814107,"Longitude":144.96327999999994,"Address":"505 City Road\r\nSouth Melbourne, Vic 3205","EventIds":[157]},{"Id":129,"Name":"The Park Hotel","Latitude":-37.814107,"Longitude":144.96327999999994,"Address":"12 Watton Street, Werribee","EventIds":[130,217]},{"Id":130,"Name":"The Penny Black","Latitude":-37.814107,"Longitude":144.96327999999994,"Address":"420 Sydney Road, \r\nBrunswick 3056 Victoria","EventIds":[115]},{"Id":131,"Name":"The Rainbow Hotel","Latitude":-37.814107,"Longitude":144.96327999999994,"Address":"27 St David Street, Fitzroy VIC 3065","EventIds":[152]},{"Id":132,"Name":"The Station Hotel","Latitude":-37.814107,"Longitude":144.96327999999994,"Address":"59 Napier Street, Foostcray Vic 3011","EventIds":[50]},{"Id":133,"Name":"The Studio","Latitude":-37.814107,"Longitude":144.96327999999994,"Address":"Level 1/57 Gheringhap St, Geelong","EventIds":[68,223]},{"Id":134,"Name":"The Tramway Hotel","Latitude":-37.814107,"Longitude":144.96327999999994,"Address":"165 Rae St, Fitzroy North VIC 3068","EventIds":[155]},{"Id":135,"Name":"The Wharf Hotel","Latitude":-37.814107,"Longitude":144.96327999999994,"Address":"WTC Wharf Hotel\r\n18-38 Siddeley Street\r\nMelbourne 3008\r\nVIC","EventIds":[117]},{"Id":136,"Name":"The Wilde","Latitude":-37.814107,"Longitude":144.96327999999994,"Address":"153 Gertrude St\r\nFitzroy\r\nVIC 3065","EventIds":[60]},{"Id":137,"Name":"The Woodlands Hotel","Latitude":-37.814107,"Longitude":144.96327999999994,"Address":"84-88 Sydney Rd \r\nCoburg, 3058","EventIds":[176,181]},{"Id":138,"Name":"The Workshop Bar","Latitude":-37.814107,"Longitude":144.96327999999994,"Address":"1/413 Elizabeth St, Melbourne VIC 3000","EventIds":[83]},{"Id":139,"Name":"Thread Den","Latitude":-37.814107,"Longitude":144.96327999999994,"Address":"3d / 26 Wellington Street\r\nCollingwood","EventIds":[80]},{"Id":140,"Name":"TimeOut Craft Beer Hop-Up Bar","Latitude":-37.814107,"Longitude":144.96327999999994,"Address":"Terminus Hotel 492 Queens Parade, North Fitzroy VIC 3068","EventIds":[169,170]},{"Id":141,"Name":"Touche Hombre","Latitude":-37.814107,"Longitude":144.96327999999994,"Address":"233 Lonsdale Street, Melbourne","EventIds":[85]},{"Id":142,"Name":"Tramcar Restaurant","Latitude":-37.814107,"Longitude":144.96327999999994,"Address":"167 Normanby Road\r\nSouth Melbourne","EventIds":[77]},{"Id":143,"Name":"Trunk","Latitude":-37.814107,"Longitude":144.96327999999994,"Address":"275 Exhibition St, Melbourne 3000.","EventIds":[64]},{"Id":144,"Name":"Two Birds Brewing","Latitude":-37.814107,"Longitude":144.96327999999994,"Address":"136 Hall Street\r\nSpotswood","EventIds":[82]},{"Id":145,"Name":"Two Row","Latitude":-37.814107,"Longitude":144.96327999999994,"Address":"351 Smith Street\r\nFitzroy VIC 3065","EventIds":[164,196]},{"Id":146,"Name":"Uncle St Kilda","Latitude":-37.814107,"Longitude":144.96327999999994,"Address":"188 Carlisle St\r\nSt Kilda, 3182","EventIds":[44]},{"Id":147,"Name":"Various Venues","Latitude":0.0,"Longitude":0.0,"Address":"Various Venues around Town\r\nKeep in the loop through social media","EventIds":[90]},{"Id":148,"Name":"Vibe Hotel Carlton","Latitude":-37.814107,"Longitude":144.96327999999994,"Address":"441 Royal Pde Parkville, VIC 3052 Australia","EventIds":[131]},{"Id":149,"Name":"Victoria Hotel","Latitude":-37.814107,"Longitude":144.96327999999994,"Address":"380 Victoria Street\r\nBrunswick Vic 3056","EventIds":[114]},{"Id":150,"Name":"Village Melbourne","Latitude":-37.814107,"Longitude":144.96327999999994,"Address":"557 St Kilda Rd, Melbourne, 3004","EventIds":[74,139,159,189]},{"Id":151,"Name":"Vue de Monde Rialto","Latitude":-37.814107,"Longitude":144.96327999999994,"Address":"Level 55 \r\nRialto / 525 Collins Street\r\nMelbourne 3000","EventIds":[149]},{"Id":152,"Name":"Vue Grand Hotel","Latitude":-37.814107,"Longitude":144.96327999999994,"Address":"46 Hesse St Queenscliff","EventIds":[2,212]},{"Id":153,"Name":"Warehouse/ vacant space","Latitude":-37.814107,"Longitude":144.96327999999994,"Address":"Monster and Bear\r\n13-19 Leslie St, \r\nBrunswick VIC 3056","EventIds":[69]},{"Id":154,"Name":"Wayside Inn","Latitude":-37.814107,"Longitude":144.96327999999994,"Address":"446 City Road, South Melbourne, VIC 3205","EventIds":[51]},{"Id":155,"Name":"Whisky and Alement","Latitude":-37.814107,"Longitude":144.96327999999994,"Address":"270 Russell Street,\r\nMelbourne VIC 3000","EventIds":[146]},{"Id":156,"Name":"World Restaurant & Bar","Latitude":-37.814107,"Longitude":144.96327999999994,"Address":"Shop 4, Building 2, Riverside Quay, Southbank 3006","EventIds":[183]},{"Id":157,"Name":"Yarra River","Latitude":0.0,"Longitude":0.0,"Address":"South side on the Yarra BBQ area near the Botanic Gardens","EventIds":[96]},{"Id":158,"Name":"Young & Jackson","Latitude":-37.814107,"Longitude":144.96327999999994,"Address":"Cnr Swanston & Flinders Streets\r\nMelbourne","EventIds":[30,199]},{"Id":159,"Name":"Young Bloods Diner","Latitude":-37.814107,"Longitude":144.96327999999994,"Address":"60 Rose Street Fitzroy","EventIds":[99]}]